$GPZDA,163227.066,02,02,2011,00,00*57
$GPGGA,163227.066,0000.000000,N,00000.000000,E,1,0,0,0,M,0,M,,*41
$GPGLL,0000.000000,N,00000.000000,E,163227.066,A,A*5A
$GPVTG,0,T,0,M,0,N,0,K,A*23
$GPRMC,163227.066,A,0000.000000,N,00000.000000,E,0,0,020211,0,E,A*18
$GPGSA,A,3,,,,,,,,,,,,,0,0,0*2C
$GPRTE,1,1,C,0,*0B

$GPZDA,163228.080,02,02,2011,00,00*50
$GPGGA,163228.080,0000.016667,N,00000.016667,E,1,0,0,0,M,0,M,,*46
$GPGLL,0000.016667,N,00000.016667,E,163228.080,A,A*5D
$GPVTG,0,T,0,M,0,N,0,K,A*23
$GPRMC,163228.080,A,0000.016667,N,00000.016667,E,0,0,020211,0,E,A*1F
$GPGSA,A,3,,,,,,,,,,,,,0,0,0*2C
$GPRTE,1,1,C,0,*0B

$GPZDA,163229.096,02,02,2011,00,00*56
$GPGGA,163229.096,0000.033333,N,00000.033333,E,1,0,0,0,M,0,M,,*40
$GPGLL,0000.033333,N,00000.033333,E,163229.096,A,A*5B
$GPVTG,0,T,0,M,0,N,0,K,A*23
$GPRMC,163229.096,A,0000.033333,N,00000.033333,E,0,0,020211,0,E,A*19
$GPGSA,A,3,,,,,,,,,,,,,0,0,0*2C
$GPRTE,1,1,C,0,*0B

$GPZDA,163230.109,02,02,2011,00,00*59
$GPGGA,163230.109,0000.050000,N,00000.050000,E,1,0,0,0,M,0,M,,*4F
$GPGLL,0000.050000,N,00000.050000,E,163230.109,A,A*54
$GPVTG,0,T,0,M,0,N,0,K,A*23
$GPRMC,163230.109,A,0000.050000,N,00000.050000,E,0,0,020211,0,E,A*16
$GPGSA,A,3,,,,,,,,,,,,,0,0,0*2C
$GPRTE,1,1,C,0,*0B

$GPZDA,163231.123,02,02,2011,00,00*50
$GPGGA,163231.123,0000.066667,N,00000.066667,E,1,0,0,0,M,0,M,,*46
$GPGLL,0000.066667,N,00000.066667,E,163231.123,A,A*5D
$GPVTG,0,T,0,M,0,N,0,K,A*23
$GPRMC,163231.123,A,0000.066667,N,00000.066667,E,0,0,020211,0,E,A*1F
$GPGSA,A,3,,,,,,,,,,,,,0,0,0*2C
$GPRTE,1,1,C,0,*0B

$GPZDA,163232.139,02,02,2011,00,00*58
$GPGGA,163232.139,0000.083333,N,00000.083333,E,1,0,0,0,M,0,M,,*4E
$GPGLL,0000.083333,N,00000.083333,E,163232.139,A,A*55
$GPVTG,0,T,0,M,0,N,0,K,A*23
$GPRMC,163232.139,A,0000.083333,N,00000.083333,E,0,0,020211,0,E,A*17
$GPGSA,A,3,,,,,,,,,,,,,0,0,0*2C
$GPRTE,1,1,C,0,*0B

$GPZDA,163233.151,02,02,2011,00,00*57
$GPGGA,163233.151,0000.100000,N,00000.100000,E,1,0,0,0,M,0,M,,*41
$GPGLL,0000.100000,N,00000.100000,E,163233.151,A,A*5A
$GPVTG,0,T,0,M,0,N,0,K,A*23
$GPRMC,163233.151,A,0000.100000,N,00000.100000,E,0,0,020211,0,E,A*18
$GPGSA,A,3,,,,,,,,,,,,,0,0,0*2C
$GPRTE,1,1,C,0,*0B

$GPZDA,163234.164,02,02,2011,00,00*56
$GPGGA,163234.164,0000.116667,N,00000.116667,E,1,0,0,0,M,0,M,,*40
$GPGLL,0000.116667,N,00000.116667,E,163234.164,A,A*5B
$GPVTG,0,T,0,M,0,N,0,K,A*23
$GPRMC,163234.164,A,0000.116667,N,00000.116667,E,0,0,020211,0,E,A*19
$GPGSA,A,3,,,,,,,,,,,,,0,0,0*2C
$GPRTE,1,1,C,0,*0B

$GPZDA,163235.180,02,02,2011,00,00*5D
$GPGGA,163235.180,0000.133333,N,00000.133333,E,1,0,0,0,M,0,M,,*4B
$GPGLL,0000.133333,N,00000.133333,E,163235.180,A,A*50
$GPVTG,0,T,0,M,0,N,0,K,A*23
$GPRMC,163235.180,A,0000.133333,N,00000.133333,E,0,0,020211,0,E,A*12
$GPGSA,A,3,,,,,,,,,,,,,0,0,0*2C
$GPRTE,1,1,C,0,*0B

$GPZDA,163236.193,02,02,2011,00,00*5C
$GPGGA,163236.193,0000.150000,N,00000.150000,E,1,0,0,0,M,0,M,,*4A
$GPGLL,0000.150000,N,00000.150000,E,163236.193,A,A*51
$GPVTG,0,T,0,M,0,N,0,K,A*23
$GPRMC,163236.193,A,0000.150000,N,00000.150000,E,0,0,020211,0,E,A*13
$GPGSA,A,3,,,,,,,,,,,,,0,0,0*2C
$GPRTE,1,1,C,0,*0B

$GPZDA,163237.207,02,02,2011,00,00*53
$GPGGA,163237.207,0000.166667,N,00000.166667,E,1,0,0,0,M,0,M,,*45
$GPGLL,0000.166667,N,00000.166667,E,163237.207,A,A*5E
$GPVTG,0,T,0,M,0,N,0,K,A*23
$GPRMC,163237.207,A,0000.166667,N,00000.166667,E,0,0,020211,0,E,A*1C
$GPGSA,A,3,,,,,,,,,,,,,0,0,0*2C
$GPRTE,1,1,C,0,*0B

$GPZDA,163238.222,02,02,2011,00,00*5B
$GPGGA,163238.222,0000.183333,N,00000.183333,E,1,0,0,0,M,0,M,,*4D
$GPGLL,0000.183333,N,00000.183333,E,163238.222,A,A*56
$GPVTG,0,T,0,M,0,N,0,K,A*23
$GPRMC,163238.222,A,0000.183333,N,00000.183333,E,0,0,020211,0,E,A*14
$GPGSA,A,3,,,,,,,,,,,,,0,0,0*2C
$GPRTE,1,1,C,0,*0B

$GPZDA,163239.235,02,02,2011,00,00*5C
$GPGGA,163239.235,0000.200000,N,00000.200000,E,1,0,0,0,M,0,M,,*4A
$GPGLL,0000.200000,N,00000.200000,E,163239.235,A,A*51
$GPVTG,0,T,0,M,0,N,0,K,A*23
$GPRMC,163239.235,A,0000.200000,N,00000.200000,E,0,0,020211,0,E,A*13
$GPGSA,A,3,,,,,,,,,,,,,0,0,0*2C
$GPRTE,1,1,C,0,*0B

$GPZDA,163240.250,02,02,2011,00,00*51
$GPGGA,163240.250,0000.216667,N,00000.216667,E,1,0,0,0,M,0,M,,*47
$GPGLL,0000.216667,N,00000.216667,E,163240.250,A,A*5C
$GPVTG,0,T,0,M,0,N,0,K,A*23
$GPRMC,163240.250,A,0000.216667,N,00000.216667,E,0,0,020211,0,E,A*1E
$GPGSA,A,3,,,,,,,,,,,,,0,0,0*2C
$GPRTE,1,1,C,0,*0B

$GPZDA,163241.263,02,02,2011,00,00*50
$GPGGA,163241.263,0000.233333,N,00000.233333,E,1,0,0,0,M,0,M,,*46
$GPGLL,0000.233333,N,00000.233333,E,163241.263,A,A*5D
$GPVTG,0,T,0,M,0,N,0,K,A*23
$GPRMC,163241.263,A,0000.233333,N,00000.233333,E,0,0,020211,0,E,A*1F
$GPGSA,A,3,,,,,,,,,,,,,0,0,0*2C
$GPRTE,1,1,C,0,*0B

$GPZDA,163242.278,02,02,2011,00,00*59
$GPGGA,163242.278,0000.250000,N,00000.250000,E,1,0,0,0,M,0,M,,*4F
$GPGLL,0000.250000,N,00000.250000,E,163242.278,A,A*54
$GPVTG,0,T,0,M,0,N,0,K,A*23
$GPRMC,163242.278,A,0000.250000,N,00000.250000,E,0,0,020211,0,E,A*16
$GPGSA,A,3,,,,,,,,,,,,,0,0,0*2C
$GPRTE,1,1,C,0,*0B

$GPZDA,163243.291,02,02,2011,00,00*5F
$GPGGA,163243.291,0000.266667,N,00000.266667,E,1,0,0,0,M,0,M,,*49
$GPGLL,0000.266667,N,00000.266667,E,163243.291,A,A*52
$GPVTG,0,T,0,M,0,N,0,K,A*23
$GPRMC,163243.291,A,0000.266667,N,00000.266667,E,0,0,020211,0,E,A*10
$GPGSA,A,3,,,,,,,,,,,,,0,0,0*2C
$GPRTE,1,1,C,0,*0B

$GPZDA,163244.306,02,02,2011,00,00*57
$GPGGA,163244.306,0000.283333,N,00000.283333,E,1,0,0,0,M,0,M,,*41
$GPGLL,0000.283333,N,00000.283333,E,163244.306,A,A*5A
$GPVTG,0,T,0,M,0,N,0,K,A*23
$GPRMC,163244.306,A,0000.283333,N,00000.283333,E,0,0,020211,0,E,A*18
$GPGSA,A,3,,,,,,,,,,,,,0,0,0*2C
$GPRTE,1,1,C,0,*0B

$GPZDA,163245.319,02,02,2011,00,00*58
$GPGGA,163245.319,0000.300000,N,00000.300000,E,1,0,0,0,M,0,M,,*4E
$GPGLL,0000.300000,N,00000.300000,E,163245.319,A,A*55
$GPVTG,0,T,0,M,0,N,0,K,A*23
$GPRMC,163245.319,A,0000.300000,N,00000.300000,E,0,0,020211,0,E,A*17
$GPGSA,A,3,,,,,,,,,,,,,0,0,0*2C
$GPRTE,1,1,C,0,*0B

$GPZDA,163246.333,02,02,2011,00,00*53
$GPGGA,163246.333,0000.316667,N,00000.316667,E,1,0,0,0,M,0,M,,*45
$GPGLL,0000.316667,N,00000.316667,E,163246.333,A,A*5E
$GPVTG,0,T,0,M,0,N,0,K,A*23
$GPRMC,163246.333,A,0000.316667,N,00000.316667,E,0,0,020211,0,E,A*1C
$GPGSA,A,3,,,,,,,,,,,,,0,0,0*2C
$GPRTE,1,1,C,0,*0B

